{
  "region": [
    {
      "name": "Вінницька область",
      "city": [
        {
          "-lat": "49.630283",
          "-lon": "27.001648",
          "name": "Бар"
        },
        {
          "-lat": "48.368954",
          "-lon": "29.5331654",
          "name": "Бершадь"
        },
        {
          "-lat": "49.2333333",
          "-lon": "28.4833333",
          "name": "Вінниця"
        },
        {
          "-lat": "48.8094444",
          "-lon": "29.3905556",
          "name": "Гайсин"
        },
        {
          "-lat": "49.038349",
          "-lon": "28.10556",
          "name": "Жмеринка"
        },
        {
          "-lat": "49.711769",
          "-lon": "28.842859",
          "name": "Козятин"
        },
        {
          "-lat": "49.4472222",
          "-lon": "28.5230556",
          "name": "Калинівка"
        },
        {
          "-lat": "48.676151",
          "-lon": "29.262541",
          "name": "Ладижин"
        },
        {
          "-lat": "48.45",
          "-lon": "27.8",
          "name": "Могилів-Подільський"
        },
        {
          "-lat": "48.9726621",
          "-lon": "28.835666",
          "name": "Немирів"
        },
        {
          "-lat": "49.4833333",
          "-lon": "29.2666667",
          "name": "Погребище"
        },
        {
          "-lat": "48.68",
          "-lon": "28.87",
          "name": "Тульчин"
        },
        {
          "-lat": "49.563469",
          "-lon": "27.959379",
          "name": "Хмільник"
        },
        {
          "-lat": "48.73761",
          "-lon": "28.08688",
          "name": "Шаргород"
        },
        {
          "-lat": "49.9572775",
          "-lon": "26.2290711",
          "name": "Ямпіль"
        }
      ]
    },
    {
      "name": "Волинська область",
      "city": [
        {
          "-lat": "50.3505636",
          "-lon": "25.1007738",
          "name": "Берестечко"
        },
        {
          "-lat": "50.853578",
          "-lon": "24.311783",
          "name": "Володимир-Волинський"
        },
        {
          "-lat": "50.500622",
          "-lon": "24.767559",
          "name": "Горохів"
        },
        {
          "-lat": "51.6241667",
          "-lon": "24.9605556",
          "name": "Камінь-Каширський"
        },
        {
          "-lat": "50.833621",
          "-lon": "25.460706",
          "name": "Ківерці"
        },
        {
          "-lat": "51.212898",
          "-lon": "24.71343",
          "name": "Ковель"
        },
        {
          "-lat": "50.75",
          "-lon": "25.3358333",
          "name": "Луцьк"
        },
        {
          "-lat": "51.2230556",
          "-lon": "24.0377778",
          "name": "Любомль"
        },
        {
          "-lat": "50.7333333",
          "-lon": "24.1666667",
          "name": "Нововолинськ"
        },
        {
          "-lat": "50.915901",
          "-lon": "25.268551",
          "name": "Рожище"
        },
        {
          "-lat": "50.86",
          "-lon": "24.15",
          "name": "Устилуг"
        }
      ]
    },
    {
      "name": "Дніпропетровська область",
      "city": [
        {
          "-lat": "47.65815",
          "-lon": "33.697819",
          "name": "Апостолово"
        },
        {
          "-lat": "48.6561111",
          "-lon": "34.3283333",
          "name": "Верхньодніпровськ"
        },
        {
          "-lat": "48.4833333",
          "-lon": "34.0166667",
          "name": "Вольногорськ"
        },
        {
          "-lat": "48.5166667",
          "-lon": "34.6166667",
          "name": "Дніпродзержинськ"
        },
        {
          "-lat": "48.45",
          "-lon": "34.9833333",
          "name": "Дніпропетровськ"
        },
        {
          "-lat": "48.35",
          "-lon": "33.5",
          "name": "Жовті Води"
        },
        {
          "-lat": "47.899726",
          "-lon": "33.379534",
          "name": "Кривий Ріг"
        },
        {
          "-lat": "47.6397222",
          "-lon": "34.6363889",
          "name": "Марганець"
        },
        {
          "-lat": "47.5666667",
          "-lon": "34.4",
          "name": "Нікополь"
        },
        {
          "-lat": "48.6333333",
          "-lon": "35.2166667",
          "name": "Новомосковськ"
        },
        {
          "-lat": "44.9643961",
          "-lon": "35.3569007",
          "name": "Орджонікідзе"
        },
        {
          "-lat": "48.533939",
          "-lon": "35.869282",
          "name": "Павлоград"
        },
        {
          "-lat": "49.016251",
          "-lon": "35.371681",
          "name": "Перещепине"
        },
        {
          "-lat": "48.3463889",
          "-lon": "36.4044444",
          "name": "Першотравенськ"
        },
        {
          "-lat": "49.5355598",
          "-lon": "25.5276081",
          "name": "Підгородне"
        },
        {
          "-lat": "48.4113889",
          "-lon": "33.7105556",
          "name": "П'ятихатки"
        },
        {
          "-lat": "48.3177778",
          "-lon": "35.5119444",
          "name": "Синельникове"
        },
        {
          "-lat": "48.5402778",
          "-lon": "29.9677778",
          "name": "Тернівка"
        }
      ]
    },
    {
      "name": "Донецька область",
      "city": [
        {
          "-lat": "48.1333333",
          "-lon": "37.7333333",
          "name": "Авдіївка"
        },
        {
          "-lat": "48.599072",
          "-lon": "37.999241",
          "name": "Артемівськ"
        },
        {
          "-lat": "47.596119",
          "-lon": "37.490429",
          "name": "Волноваха"
        },
        {
          "-lat": "48.346432",
          "-lon": "38.059513",
          "name": "Горлівка"
        },
        {
          "-lat": "48.4",
          "-lon": "37.8333333",
          "name": "Дзержинськ"
        },
        {
          "-lat": "48.3333333",
          "-lon": "38.4",
          "name": "Дебальцеве"
        },
        {
          "-lat": "48.32357",
          "-lon": "37.291854",
          "name": "Димитров"
        },
        {
          "-lat": "48.4691324",
          "-lon": "37.0871223",
          "name": "Добропілля"
        },
        {
          "-lat": "47.770821",
          "-lon": "37.684361",
          "name": "Докучаєвськ"
        },
        {
          "-lat": "48.0027778",
          "-lon": "37.8052778",
          "name": "Донецьк"
        },
        {
          "-lat": "48.6166667",
          "-lon": "37.5333333",
          "name": "Дружківка"
        },
        {
          "-lat": "48.2166667",
          "-lon": "38.2",
          "name": "Єнакієво"
        },
        {
          "-lat": "48.1462985",
          "-lon": "38.2540176",
          "name": "Жданівка"
        },
        {
          "-lat": "48.0166667",
          "-lon": "38.2666667",
          "name": "Зугрес"
        },
        {
          "-lat": "48.15",
          "-lon": "38.3666667",
          "name": "Кіровське"
        },
        {
          "-lat": "48.736462",
          "-lon": "37.57164",
          "name": "Краматорськ"
        },
        {
          "-lat": "48.2827778",
          "-lon": "37.1827778",
          "name": "Красноармійськ"
        },
        {
          "-lat": "48.984211",
          "-lon": "37.810329",
          "name": "Червоний Лиман"
        },
        {
          "-lat": "48.51545",
          "-lon": "37.703629",
          "name": "Костянтинівка"
        },
        {
          "-lat": "47.1166667",
          "-lon": "37.55",
          "name": "Маріуполь"
        },
        {
          "-lat": "48.076179",
          "-lon": "38.068427",
          "name": "Макіївка"
        },
        {
          "-lat": "48.2045408",
          "-lon": "37.336821",
          "name": "Новогродівка"
        },
        {
          "-lat": "48.144671",
          "-lon": "37.297897",
          "name": "Селидове"
        },
        {
          "-lat": "48.846851",
          "-lon": "37.57954",
          "name": "Слов'янськ"
        },
        {
          "-lat": "48.0282789",
          "-lon": "38.7656122",
          "name": "Сніжне"
        },
        {
          "-lat": "48.6833333",
          "-lon": "38.1",
          "name": "Соледар"
        },
        {
          "-lat": "48.0166667",
          "-lon": "38.6333333",
          "name": "Торез"
        },
        {
          "-lat": "47.7833333",
          "-lon": "37.25",
          "name": "Вугледар"
        },
        {
          "-lat": "48.037411",
          "-lon": "38.160301",
          "name": "Харцизьк"
        },
        {
          "-lat": "48.0333333",
          "-lon": "38.4833333",
          "name": "Шахтарськ"
        },
        {
          "-lat": "48.1221425",
          "-lon": "37.8765944",
          "name": "Ясинувата"
        }
      ]
    },
    {
      "name": "Житомирська область",
      "city": [
        {
          "-lat": "50.0166667",
          "-lon": "29.0166667",
          "name": "Андрушівка"
        },
        {
          "-lat": "50.30204",
          "-lon": "27.67634",
          "name": "Баранівка"
        },
        {
          "-lat": "49.903381",
          "-lon": "28.599251",
          "name": "Бердичів"
        },
        {
          "-lat": "50.259749",
          "-lon": "28.676248",
          "name": "Житомир"
        },
        {
          "-lat": "50.95",
          "-lon": "28.6333333",
          "name": "Коростень"
        },
        {
          "-lat": "50.316639",
          "-lon": "29.06653",
          "name": "Коростишів"
        },
        {
          "-lat": "50.77121",
          "-lon": "29.25297",
          "name": "Малин"
        },
        {
          "-lat": "50.59256",
          "-lon": "27.62348",
          "name": "Новоград-Волинський"
        },
        {
          "-lat": "51.327251",
          "-lon": "28.818979",
          "name": "Овруч"
        },
        {
          "-lat": "50.4947222",
          "-lon": "29.2333333",
          "name": "Радомишль"
        }
      ]
    },
    {
      "name": "Закарпатська область",
      "city": [
        {
          "-lat": "48.2",
          "-lon": "22.6333333",
          "name": "Берегово"
        },
        {
          "-lat": "48.138142",
          "-lon": "23.041519",
          "name": "Виноградів"
        },
        {
          "-lat": "48.310911",
          "-lon": "23.037711",
          "name": "Іршава"
        },
        {
          "-lat": "48.442411",
          "-lon": "22.723352",
          "name": "Мукачево"
        },
        {
          "-lat": "48.7341667",
          "-lon": "22.4741667",
          "name": "Перечин"
        },
        {
          "-lat": "48.060829",
          "-lon": "24.205059",
          "name": "Рахів"
        },
        {
          "-lat": "48.5472222",
          "-lon": "22.9861111",
          "name": "Свалява"
        },
        {
          "-lat": "48.0113889",
          "-lon": "23.5722222",
          "name": "Тячів"
        },
        {
          "-lat": "48.6166667",
          "-lon": "22.3",
          "name": "Ужгород"
        },
        {
          "-lat": "48.1813889",
          "-lon": "23.2977778",
          "name": "Хуст"
        },
        {
          "-lat": "48.4333333",
          "-lon": "22.2",
          "name": "Чоп"
        }
      ]
    },
    {
      "name": "Запорізька область",
      "city": [
        {
          "-lat": "46.748581",
          "-lon": "36.809502",
          "name": "Бердянськ"
        },
        {
          "-lat": "47.433708",
          "-lon": "35.27816",
          "name": "Василівка"
        },
        {
          "-lat": "47.9419444",
          "-lon": "35.4280556",
          "name": "Вільнянськ"
        },
        {
          "-lat": "47.658562",
          "-lon": "36.252918",
          "name": "Гуляйполе"
        },
        {
          "-lat": "47.3840983",
          "-lon": "34.98121",
          "name": "Дніпрорудне"
        },
        {
          "-lat": "47.853748",
          "-lon": "35.157139",
          "name": "Запоріжжя"
        },
        {
          "-lat": "47.488911",
          "-lon": "34.400761",
          "name": "Кам'янка-Дніпровська"
        },
        {
          "-lat": "46.847839",
          "-lon": "35.364979",
          "name": "Мелітополь"
        },
        {
          "-lat": "47.206982",
          "-lon": "35.59618",
          "name": "Молочанськ"
        },
        {
          "-lat": "47.5666667",
          "-lon": "35.7833333",
          "name": "Орєхов"
        },
        {
          "-lat": "47.47728",
          "-lon": "36.25626",
          "name": "Пологи"
        },
        {
          "-lat": "46.7333333",
          "-lon": "36.35",
          "name": "Приморськ"
        },
        {
          "-lat": "47.25",
          "-lon": "35.7",
          "name": "Токмак"
        },
        {
          "-lat": "47.4979877",
          "-lon": "34.6565334",
          "name": "Енергодар"
        }
      ]
    },
    {
      "name": "Івано-Франківська область",
      "city": [
        {
          "-lat": "49.070011",
          "-lon": "23.864719",
          "name": "Болехів"
        },
        {
          "-lat": "49.263802",
          "-lon": "24.634211",
          "name": "Бурштин"
        },
        {
          "-lat": "49.1247222",
          "-lon": "24.7286111",
          "name": "Галич"
        },
        {
          "-lat": "48.6675",
          "-lon": "25.5002778",
          "name": "Городенка"
        },
        {
          "-lat": "51.79",
          "-lon": "33.76",
          "name": "Долина"
        },
        {
          "-lat": "48.9166667",
          "-lon": "24.7166667",
          "name": "Івано-Франківськ"
        },
        {
          "-lat": "49.050465",
          "-lon": "24.374117",
          "name": "Калуш"
        },
        {
          "-lat": "48.53146",
          "-lon": "25.039709",
          "name": "Коломия"
        },
        {
          "-lat": "48.315",
          "-lon": "25.0952778",
          "name": "Косів"
        },
        {
          "-lat": "48.6333333",
          "-lon": "24.5833333",
          "name": "Надвірна"
        },
        {
          "-lat": "49.411449",
          "-lon": "24.62051",
          "name": "Рогатин"
        },
        {
          "-lat": "48.45",
          "-lon": "25.5666667",
          "name": "Снятин"
        },
        {
          "-lat": "48.9008333",
          "-lon": "24.8491667",
          "name": "Тисмениця"
        },
        {
          "-lat": "48.8666667",
          "-lon": "25.0",
          "name": "Тлумач"
        },
        {
          "-lat": "48.449523",
          "-lon": "24.557508",
          "name": "Яремче"
        }
      ]
    },
    {
      "name": "Київська область",
      "city": [
        {
          "-lat": "49.7988889",
          "-lon": "30.1152778",
          "name": "Біла Церква"
        },
        {
          "-lat": "50.3197222",
          "-lon": "31.47",
          "name": "Березань"
        },
        {
          "-lat": "49.541031",
          "-lon": "30.88073",
          "name": "Богуслав"
        },
        {
          "-lat": "50.350491",
          "-lon": "30.960739",
          "name": "Бориспіль"
        },
        {
          "-lat": "49.323518",
          "-lon": "30.700165",
          "name": "Боярка"
        },
        {
          "-lat": "50.5166667",
          "-lon": "30.8166667",
          "name": "Бровари"
        },
        {
          "-lat": "50.5569165",
          "-lon": "30.2230733",
          "name": "Буча"
        },
        {
          "-lat": "50.178959",
          "-lon": "30.32715",
          "name": "Васильків"
        },
        {
          "-lat": "50.4377778",
          "-lon": "33.3822222",
          "name": "Вишневе"
        },
        {
          "-lat": "50.5833333",
          "-lon": "30.5",
          "name": "Вишгород"
        },
        {
          "-lat": "50.5166667",
          "-lon": "30.25",
          "name": "Ірпінь"
        },
        {
          "-lat": "49.85722",
          "-lon": "30.82032",
          "name": "Кагарлик"
        },
        {
          "-lat": "50.584981",
          "-lon": "30.235748",
          "name": "Київ"
        },
        {
          "-lat": "49.661022",
          "-lon": "30.98458",
          "name": "Миронівка"
        },
        {
          "-lat": "50.105728",
          "-lon": "30.630699",
          "name": "Обухів"
        },
        {
          "-lat": "50.070141",
          "-lon": "31.45775",
          "name": "Переяслав-Хмельницький"
        },
        {
          "-lat": "51.4977778",
          "-lon": "24.1180556",
          "name": "Прип'ять"
        },
        {
          "-lat": "49.972801",
          "-lon": "31.04777",
          "name": "Ржищів"
        },
        {
          "-lat": "49.73719",
          "-lon": "29.66901",
          "name": "Сквира"
        },
        {
          "-lat": "51.523777",
          "-lon": "30.768559",
          "name": "Славутич"
        },
        {
          "-lat": "49.56065",
          "-lon": "30.510309",
          "name": "Тараща"
        },
        {
          "-lat": "49.370575",
          "-lon": "29.680221",
          "name": "Тетіїв"
        },
        {
          "-lat": "49.820228",
          "-lon": "30.438929",
          "name": "Узин"
        },
        {
          "-lat": "50.1530861",
          "-lon": "30.7434917",
          "name": "Українка"
        },
        {
          "-lat": "50.0833333",
          "-lon": "29.9166667",
          "name": "Фастів"
        },
        {
          "-lat": "51.2666667",
          "-lon": "30.2166667",
          "name": "Чорнобиль"
        },
        {
          "-lat": "50.244949",
          "-lon": "31.796261",
          "name": "Яготин"
        }
      ]
    },
    {
      "name": "Кіровоградська область",
      "city": [
        {
          "-lat": "48.6666667",
          "-lon": "33.1166667",
          "name": "Олександрія"
        },
        {
          "-lat": "48.050861",
          "-lon": "32.16589",
          "name": "Бобринець"
        },
        {
          "-lat": "48.3333333",
          "-lon": "29.8666667",
          "name": "Гайворон"
        },
        {
          "-lat": "48.1108333",
          "-lon": "32.7647222",
          "name": "Долинська"
        },
        {
          "-lat": "48.7166667",
          "-lon": "32.6666667",
          "name": "Знам'янка"
        },
        {
          "-lat": "48.508389",
          "-lon": "32.264801",
          "name": "Кіровоград"
        },
        {
          "-lat": "48.65",
          "-lon": "31.6333333",
          "name": "Мала Виска"
        },
        {
          "-lat": "48.7833333",
          "-lon": "31.65",
          "name": "Новомиргород"
        },
        {
          "-lat": "48.3155556",
          "-lon": "31.5269444",
          "name": "Новоукраїнка"
        },
        {
          "-lat": "49.0502778",
          "-lon": "33.2419444",
          "name": "Світловодськ"
        }
      ]
    },
    {
      "name": "Луганська область",
      "city": [
        {
          "-lat": "48.5861652",
          "-lon": "39.1949396",
          "name": "Олександрівськ"
        },
        {
          "-lat": "48.5166667",
          "-lon": "38.5833333",
          "name": "Алмазна"
        },
        {
          "-lat": "48.4666667",
          "-lon": "38.8",
          "name": "Алчевськ"
        },
        {
          "-lat": "48.1166667",
          "-lon": "39.0833333",
          "name": "Антрацит"
        },
        {
          "-lat": "48.5133333",
          "-lon": "38.6430556",
          "name": "Брянка"
        },
        {
          "-lat": "48.174579",
          "-lon": "38.837224",
          "name": "Вахрушеве"
        },
        {
          "-lat": "49.1805556",
          "-lon": "23.7341667",
          "name": "Гірське"
        },
        {
          "-lat": "48.5833333",
          "-lon": "38.9333333",
          "name": "Зимогір'я"
        },
        {
          "-lat": "48.6928568",
          "-lon": "38.5146349",
          "name": "Золоте"
        },
        {
          "-lat": "48.4131636",
          "-lon": "38.6204799",
          "name": "Зоринськ"
        },
        {
          "-lat": "48.29607",
          "-lon": "39.745239",
          "name": "Краснодон"
        },
        {
          "-lat": "48.134041",
          "-lon": "38.931419",
          "name": "Красний Луч"
        },
        {
          "-lat": "48.896895",
          "-lon": "38.444143",
          "name": "Лисичанськ"
        },
        {
          "-lat": "48.573269",
          "-lon": "39.355659",
          "name": "Луганськ"
        },
        {
          "-lat": "48.4019444",
          "-lon": "39.2102778",
          "name": "Лутугине"
        },
        {
          "-lat": "48.07",
          "-lon": "38.9",
          "name": "Міусинськ"
        },
        {
          "-lat": "48.3444444",
          "-lon": "39.6583333",
          "name": "Молодогвардійськ"
        },
        {
          "-lat": "48.9666667",
          "-lon": "38.35",
          "name": "Новодружеськ"
        },
        {
          "-lat": "49.544731",
          "-lon": "39.103889",
          "name": "Новопсков"
        },
        {
          "-lat": "48.05",
          "-lon": "30.85",
          "name": "Первомайськ"
        },
        {
          "-lat": "48.4388889",
          "-lon": "38.8194444",
          "name": "Перевальськ"
        },
        {
          "-lat": "48.293331",
          "-lon": "38.888614",
          "name": "Петрівське"
        },
        {
          "-lat": "48.6333333",
          "-lon": "38.38",
          "name": "Попасна"
        },
        {
          "-lat": "49.016706",
          "-lon": "38.302668",
          "name": "Привілля"
        },
        {
          "-lat": "48.0833333",
          "-lon": "39.3666667",
          "name": "Ровеньки"
        },
        {
          "-lat": "49.0166667",
          "-lon": "38.3666667",
          "name": "Рубіжне"
        },
        {
          "-lat": "49.41011",
          "-lon": "38.15258",
          "name": "Сватове"
        },
        {
          "-lat": "48.084549",
          "-lon": "39.65163",
          "name": "Свердловськ"
        },
        {
          "-lat": "48.950191",
          "-lon": "38.497631",
          "name": "Сєвєродонецьк"
        },
        {
          "-lat": "49.2666667",
          "-lon": "38.9166667",
          "name": "Старобільськ"
        },
        {
          "-lat": "48.5666667",
          "-lon": "38.65",
          "name": "Стаханов"
        },
        {
          "-lat": "48.3523068",
          "-lon": "39.7239205",
          "name": "Суходільськ"
        },
        {
          "-lat": "48.737247",
          "-lon": "39.2311974",
          "name": "Щастя"
        },
        {
          "-lat": "48.600487",
          "-lon": "38.5920825",
          "name": "Теплогірськ"
        },
        {
          "-lat": "48.095566",
          "-lon": "39.759607",
          "name": "Червонопартизанськ"
        }
      ]
    },
    {
      "name": "Львівська область",
      "city": [
        {
          "-lat": "50.380501",
          "-lon": "24.01269",
          "name": "Белз"
        },
        {
          "-lat": "49.6331904",
          "-lon": "24.2907476",
          "name": "Бібрка"
        },
        {
          "-lat": "49.28476",
          "-lon": "23.42137",
          "name": "Борислав"
        },
        {
          "-lat": "50.0833333",
          "-lon": "25.15",
          "name": "Броди"
        },
        {
          "-lat": "49.9666667",
          "-lon": "24.6333333",
          "name": "Буськ"
        },
        {
          "-lat": "50.24",
          "-lon": "24.1394444",
          "name": "Великі Мости"
        },
        {
          "-lat": "49.8233333",
          "-lon": "24.5166667",
          "name": "Глиняни"
        },
        {
          "-lat": "49.1666667",
          "-lon": "26.5666667",
          "name": "Городок"
        },
        {
          "-lat": "49.5666667",
          "-lon": "22.7833333",
          "name": "Добромиль"
        },
        {
          "-lat": "49.34853",
          "-lon": "23.51647",
          "name": "Дрогобич"
        },
        {
          "-lat": "49.8833333",
          "-lon": "24.0833333",
          "name": "Дубляни"
        },
        {
          "-lat": "49.3813889",
          "-lon": "24.1408333",
          "name": "Жидачів"
        },
        {
          "-lat": "50.0666667",
          "-lon": "23.9666667",
          "name": "Жовква"
        },
        {
          "-lat": "49.8083333",
          "-lon": "24.9011111",
          "name": "Золочів"
        },
        {
          "-lat": "50.1",
          "-lon": "24.35",
          "name": "Кам'янка-Бузька"
        },
        {
          "-lat": "49.85",
          "-lon": "24.0166667",
          "name": "Львів"
        },
        {
          "-lat": "49.7941667",
          "-lon": "23.1525",
          "name": "Мостиська"
        },
        {
          "-lat": "49.67",
          "-lon": "24.5594444",
          "name": "Перемишляни"
        },
        {
          "-lat": "49.7138889",
          "-lon": "23.9108333",
          "name": "Пустомити"
        },
        {
          "-lat": "50.230431",
          "-lon": "23.628309",
          "name": "Рава-Руська"
        },
        {
          "-lat": "50.2827778",
          "-lon": "24.6375",
          "name": "Радехів"
        },
        {
          "-lat": "49.6530556",
          "-lon": "23.4880556",
          "name": "Рудки"
        },
        {
          "-lat": "49.5166667",
          "-lon": "23.2027778",
          "name": "Самбір"
        },
        {
          "-lat": "49.036049",
          "-lon": "23.51232",
          "name": "Сколе"
        },
        {
          "-lat": "50.4833333",
          "-lon": "24.2833333",
          "name": "Сокаль"
        },
        {
          "-lat": "49.4430556",
          "-lon": "23.0033333",
          "name": "Старий Самбір"
        },
        {
          "-lat": "49.256171",
          "-lon": "23.850306",
          "name": "Стрий"
        },
        {
          "-lat": "49.2805556",
          "-lon": "23.505",
          "name": "Трускавець"
        },
        {
          "-lat": "50.3666667",
          "-lon": "23.7444444",
          "name": "Угнів"
        },
        {
          "-lat": "49.5333333",
          "-lon": "22.85",
          "name": "Хирів"
        },
        {
          "-lat": "50.3833333",
          "-lon": "24.2333333",
          "name": "Червоноград"
        },
        {
          "-lat": "49.942501",
          "-lon": "23.390989",
          "name": "Яворів"
        }
      ]
    },
    {
      "name": "Миколаївська область",
      "city": [
        {
          "-lat": "47.404331",
          "-lon": "32.445301",
          "name": "Баштанка"
        },
        {
          "-lat": "47.587711",
          "-lon": "31.336",
          "name": "Вознесенськ"
        },
        {
          "-lat": "46.9666667",
          "-lon": "32.0",
          "name": "Миколаїв"
        },
        {
          "-lat": "47.3166667",
          "-lon": "31.7833333",
          "name": "Нова Одеса"
        },
        {
          "-lat": "47.6833333",
          "-lon": "32.5",
          "name": "Новий Буг"
        },
        {
          "-lat": "46.6166667",
          "-lon": "31.55",
          "name": "Очаків"
        },
        {
          "-lat": "48.05",
          "-lon": "30.85",
          "name": "Первомайськ"
        },
        {
          "-lat": "47.0666667",
          "-lon": "32.8166667",
          "name": "Снігурівка"
        },
        {
          "-lat": "47.8166667",
          "-lon": "31.1833333",
          "name": "Южноукраїнськ"
        }
      ]
    },
    {
      "name": "Одеська область",
      "city": [
        {
          "-lat": "47.7173",
          "-lon": "29.975639",
          "name": "Ананьїв"
        },
        {
          "-lat": "45.99739",
          "-lon": "29.431288",
          "name": "Арциз"
        },
        {
          "-lat": "47.9333333",
          "-lon": "29.6166667",
          "name": "Балта"
        },
        {
          "-lat": "46.1833333",
          "-lon": "30.3333333",
          "name": "Білгород-Дністровський"
        },
        {
          "-lat": "45.682701",
          "-lon": "28.61935",
          "name": "Болград"
        },
        {
          "-lat": "45.3516667",
          "-lon": "28.8363889",
          "name": "Ізмаїл"
        },
        {
          "-lat": "46.3020534",
          "-lon": "30.6517391",
          "name": "Іллічівськ"
        },
        {
          "-lat": "45.45578",
          "-lon": "29.273291",
          "name": "Кілія"
        },
        {
          "-lat": "48.093941",
          "-lon": "29.13368",
          "name": "Кодима"
        },
        {
          "-lat": "47.75",
          "-lon": "29.5333333",
          "name": "Котовськ"
        },
        {
          "-lat": "46.4666667",
          "-lon": "30.7333333",
          "name": "Одеса"
        },
        {
          "-lat": "45.841418",
          "-lon": "29.62284",
          "name": "Татарбунари"
        },
        {
          "-lat": "46.5",
          "-lon": "30.3333333",
          "name": "Теплодар"
        },
        {
          "-lat": "47.8173262",
          "-lon": "33.5737487",
          "name": "Південне"
        }
      ]
    },
    {
      "name": "Полтавська область",
      "city": [
        {
          "-lat": "50.3666667",
          "-lon": "34.0",
          "name": "Гадяч"
        },
        {
          "-lat": "49.3833333",
          "-lon": "33.2833333",
          "name": "Глобино"
        },
        {
          "-lat": "50.116852",
          "-lon": "32.44059",
          "name": "Гребінка"
        },
        {
          "-lat": "50.20955",
          "-lon": "34.362345",
          "name": "Зіньків"
        },
        {
          "-lat": "49.45",
          "-lon": "35.1333333",
          "name": "Карлівка"
        },
        {
          "-lat": "49.073521",
          "-lon": "33.4231",
          "name": "Кременчук"
        },
        {
          "-lat": "49.145439",
          "-lon": "34.213638",
          "name": "Кобеляки"
        },
        {
          "-lat": "49.013756",
          "-lon": "33.643381",
          "name": "Комсомольськ"
        },
        {
          "-lat": "50.36319",
          "-lon": "33.253288",
          "name": "Лохвиця"
        },
        {
          "-lat": "50.0166667",
          "-lon": "33.0",
          "name": "Лубни"
        },
        {
          "-lat": "49.963799",
          "-lon": "33.61869",
          "name": "Миргород"
        },
        {
          "-lat": "50.23975",
          "-lon": "32.514309",
          "name": "Пирятин"
        },
        {
          "-lat": "49.59269",
          "-lon": "34.551159",
          "name": "Полтава"
        },
        {
          "-lat": "49.790279",
          "-lon": "33.207809",
          "name": "Хорол"
        },
        {
          "-lat": "50.4",
          "-lon": "33.4",
          "name": "Червонозаводське"
        }
      ]
    },
    {
      "name": "Рівненська область",
      "city": [
        {
          "-lat": "51.0",
          "-lon": "26.75",
          "name": "Березне"
        },
        {
          "-lat": "50.38738",
          "-lon": "25.754559",
          "name": "Дубно"
        },
        {
          "-lat": "51.571209",
          "-lon": "26.56805",
          "name": "Дубровиця"
        },
        {
          "-lat": "50.5166667",
          "-lon": "26.25",
          "name": "Здолбунів"
        },
        {
          "-lat": "50.619129",
          "-lon": "27.161869",
          "name": "Корець"
        },
        {
          "-lat": "50.8833333",
          "-lon": "26.45",
          "name": "Костопіль"
        },
        {
          "-lat": "51.3436553",
          "-lon": "25.8490867",
          "name": "Кузнецовськ"
        },
        {
          "-lat": "50.3333333",
          "-lon": "26.5166667",
          "name": "Острог"
        },
        {
          "-lat": "50.125777",
          "-lon": "25.264195",
          "name": "Радивилів"
        },
        {
          "-lat": "50.6166667",
          "-lon": "26.25",
          "name": "Рівне"
        },
        {
          "-lat": "51.3372222",
          "-lon": "26.6058333",
          "name": "Сарни"
        }
      ]
    },
    {
      "name": "Сумська область",
      "city": [
        {
          "-lat": "50.29855",
          "-lon": "34.892052",
          "name": "Охтирка"
        },
        {
          "-lat": "51.149402",
          "-lon": "34.3175225",
          "name": "Білопілля"
        },
        {
          "-lat": "51.1978",
          "-lon": "33.847351",
          "name": "Буринь"
        },
        {
          "-lat": "51.6786111",
          "-lon": "33.9113889",
          "name": "Глухів"
        },
        {
          "-lat": "51.550121",
          "-lon": "33.38279",
          "name": "Кролевець"
        },
        {
          "-lat": "51.237469",
          "-lon": "33.21217",
          "name": "Конотоп"
        },
        {
          "-lat": "48.96",
          "-lon": "31.52",
          "name": "Лебедин"
        },
        {
          "-lat": "51.337589",
          "-lon": "33.87888",
          "name": "Путивль"
        },
        {
          "-lat": "50.743919",
          "-lon": "33.475712",
          "name": "Ромни"
        },
        {
          "-lat": "52.1833333",
          "-lon": "34.0333333",
          "name": "Середина-Буда"
        },
        {
          "-lat": "50.910561",
          "-lon": "34.80566",
          "name": "Суми"
        },
        {
          "-lat": "50.9599282",
          "-lon": "25.55378",
          "name": "Тростянець"
        },
        {
          "-lat": "51.86282",
          "-lon": "33.487831",
          "name": "Шостка"
        }
      ]
    },
    {
      "name": "Тернопільська область",
      "city": [
        {
          "-lat": "49.444191",
          "-lon": "24.94486",
          "name": "Бережани"
        },
        {
          "-lat": "48.803181",
          "-lon": "26.041809",
          "name": "Борщів"
        },
        {
          "-lat": "49.05772",
          "-lon": "25.401979",
          "name": "Бучач"
        },
        {
          "-lat": "48.65",
          "-lon": "25.7333333",
          "name": "Заліщики"
        },
        {
          "-lat": "49.6666667",
          "-lon": "25.7777778",
          "name": "Збараж"
        },
        {
          "-lat": "49.660696",
          "-lon": "25.1434667",
          "name": "Зборів"
        },
        {
          "-lat": "50.099129",
          "-lon": "25.7328",
          "name": "Кременець"
        },
        {
          "-lat": "49.8659402",
          "-lon": "26.0841931",
          "name": "Ланівці"
        },
        {
          "-lat": "49.0888889",
          "-lon": "25.1694444",
          "name": "Монастириська"
        },
        {
          "-lat": "49.5246859",
          "-lon": "26.137326",
          "name": "Підволочиськ"
        },
        {
          "-lat": "49.2694444",
          "-lon": "25.1361111",
          "name": "Підгайці"
        },
        {
          "-lat": "50.0",
          "-lon": "25.5083333",
          "name": "Почаїв"
        },
        {
          "-lat": "49.424214",
          "-lon": "25.976246",
          "name": "Скалат"
        },
        {
          "-lat": "49.551361",
          "-lon": "25.603979",
          "name": "Тернопіль"
        },
        {
          "-lat": "49.29348",
          "-lon": "25.699551",
          "name": "Теребовля"
        },
        {
          "-lat": "49.0166667",
          "-lon": "25.8",
          "name": "Чортків"
        },
        {
          "-lat": "50.122577",
          "-lon": "26.1149716",
          "name": "Шумськ"
        }
      ]
    },
    {
      "name": "Харківська область",
      "city": [
        {
          "-lat": "49.4658333",
          "-lon": "36.8677778",
          "name": "Балаклея"
        },
        {
          "-lat": "48.9",
          "-lon": "37.0166667",
          "name": "Барвінкове"
        },
        {
          "-lat": "50.1654302",
          "-lon": "35.5267251",
          "name": "Богодухів"
        },
        {
          "-lat": "49.843601",
          "-lon": "35.61388",
          "name": "Валки"
        },
        {
          "-lat": "50.0455556",
          "-lon": "37.3905556",
          "name": "Великий Бурлук"
        },
        {
          "-lat": "50.278519",
          "-lon": "36.945171",
          "name": "Вовчанськ"
        },
        {
          "-lat": "50.110668",
          "-lon": "36.114361",
          "name": "Дергачі"
        },
        {
          "-lat": "49.701939",
          "-lon": "36.355171",
          "name": "Зміїв"
        },
        {
          "-lat": "49.2127778",
          "-lon": "37.2569444",
          "name": "Ізюм"
        },
        {
          "-lat": "49.3666667",
          "-lon": "35.45",
          "name": "Красноград"
        },
        {
          "-lat": "49.721901",
          "-lon": "37.624329",
          "name": "Куп'янськ"
        },
        {
          "-lat": "48.891684",
          "-lon": "36.325786",
          "name": "Лозова"
        },
        {
          "-lat": "49.95",
          "-lon": "35.9166667",
          "name": "Люботин"
        },
        {
          "-lat": "49.8166667",
          "-lon": "36.05",
          "name": "Мерефа"
        },
        {
          "-lat": "49.3833333",
          "-lon": "36.2166667",
          "name": "Першотравневий"
        },
        {
          "-lat": "49.98967",
          "-lon": "36.208309",
          "name": "Харків"
        },
        {
          "-lat": "49.8355556",
          "-lon": "36.6863889",
          "name": "Чугуїв"
        }
      ]
    },
    {
      "name": "Херсонська область",
      "city": [
        {
          "-lat": "46.843822",
          "-lon": "33.4375",
          "name": "Берислав"
        },
        {
          "-lat": "46.171638",
          "-lon": "34.80777",
          "name": "Генічеськ"
        },
        {
          "-lat": "46.5166667",
          "-lon": "32.5166667",
          "name": "Гола Пристань"
        },
        {
          "-lat": "46.817388",
          "-lon": "33.494325",
          "name": "Каховка"
        },
        {
          "-lat": "46.7666667",
          "-lon": "33.3666667",
          "name": "Нова Каховка"
        },
        {
          "-lat": "46.116871",
          "-lon": "32.913731",
          "name": "Скадовськ"
        },
        {
          "-lat": "46.7528018",
          "-lon": "33.4216856",
          "name": "Таврійськ"
        },
        {
          "-lat": "46.653368",
          "-lon": "32.629424",
          "name": "Херсон"
        },
        {
          "-lat": "46.62",
          "-lon": "32.72",
          "name": "Цюрупинськ"
        }
      ]
    },
    {
      "name": "Хмельницька область",
      "city": [
        {
          "-lat": "49.535179",
          "-lon": "26.22331",
          "name": "Волочиськ"
        },
        {
          "-lat": "49.1666667",
          "-lon": "26.5666667",
          "name": "Городок"
        },
        {
          "-lat": "49.267071",
          "-lon": "27.440269",
          "name": "Деражня"
        },
        {
          "-lat": "48.8909743",
          "-lon": "26.8546608",
          "name": "Дунаївці"
        },
        {
          "-lat": "50.119221",
          "-lon": "26.82629",
          "name": "Ізяслав"
        },
        {
          "-lat": "48.6833333",
          "-lon": "26.5833333",
          "name": "Кам'янець-Подільський"
        },
        {
          "-lat": "49.6519444",
          "-lon": "26.9705556",
          "name": "Красилів"
        },
        {
          "-lat": "50.3374232",
          "-lon": "26.6404529",
          "name": "Нетішин"
        },
        {
          "-lat": "50.122269",
          "-lon": "27.511909",
          "name": "Полонне"
        },
        {
          "-lat": "49.0563905",
          "-lon": "27.3944506",
          "name": "Славута"
        },
        {
          "-lat": "49.7555556",
          "-lon": "27.2208333",
          "name": "Старокостянтинів"
        },
        {
          "-lat": "49.4166667",
          "-lon": "27.0",
          "name": "Хмельницький"
        },
        {
          "-lat": "50.179131",
          "-lon": "27.07732",
          "name": "Шепетівка"
        }
      ]
    },
    {
      "name": "Черкаська область",
      "city": [
        {
          "-lat": "49.0166667",
          "-lon": "31.0666667",
          "name": "Ватутіне"
        },
        {
          "-lat": "49.290649",
          "-lon": "31.443199",
          "name": "Городище"
        },
        {
          "-lat": "49.245522",
          "-lon": "30.11998",
          "name": "Жашків"
        },
        {
          "-lat": "49.075489",
          "-lon": "30.967911",
          "name": "Звенигородка"
        },
        {
          "-lat": "49.674271",
          "-lon": "32.040421",
          "name": "Золотоноша"
        },
        {
          "-lat": "49.036347",
          "-lon": "32.103481",
          "name": "Кам'янка"
        },
        {
          "-lat": "49.75",
          "-lon": "31.4666667",
          "name": "Канів"
        },
        {
          "-lat": "49.421051",
          "-lon": "31.268993",
          "name": "Корсунь-Шевченківський"
        },
        {
          "-lat": "48.9909154",
          "-lon": "29.8051363",
          "name": "Монастирище"
        },
        {
          "-lat": "49.224621",
          "-lon": "31.878401",
          "name": "Сміла"
        },
        {
          "-lat": "48.8833333",
          "-lon": "30.7",
          "name": "Тальне"
        },
        {
          "-lat": "48.75",
          "-lon": "30.2166667",
          "name": "Умань"
        },
        {
          "-lat": "48.8494444",
          "-lon": "29.97",
          "name": "Христинівка"
        },
        {
          "-lat": "49.4333333",
          "-lon": "32.0666667",
          "name": "Черкаси"
        },
        {
          "-lat": "49.072498",
          "-lon": "32.683578",
          "name": "Чигирин"
        },
        {
          "-lat": "49.00349",
          "-lon": "31.385559",
          "name": "Шпола"
        }
      ]
    },
    {
      "name": "Чернігівська область",
      "city": [
        {
          "-lat": "51.1830556",
          "-lon": "32.8297222",
          "name": "Бахмач"
        },
        {
          "-lat": "50.745",
          "-lon": "31.3869444",
          "name": "Бобровиця"
        },
        {
          "-lat": "51.249451",
          "-lon": "32.43034",
          "name": "Борзна"
        },
        {
          "-lat": "51.8905556",
          "-lon": "31.5936111",
          "name": "Городня"
        },
        {
          "-lat": "50.9246667",
          "-lon": "30.756",
          "name": "Десна"
        },
        {
          "-lat": "50.863918",
          "-lon": "32.39307",
          "name": "Ічня"
        },
        {
          "-lat": "51.7754831",
          "-lon": "32.2595792",
          "name": "Корюківка"
        },
        {
          "-lat": "51.521759",
          "-lon": "32.21888",
          "name": "Мена"
        },
        {
          "-lat": "51.0380556",
          "-lon": "31.8861111",
          "name": "Ніжин"
        },
        {
          "-lat": "52.0069896",
          "-lon": "33.2537069",
          "name": "Новгород-Сіверський"
        },
        {
          "-lat": "50.9333333",
          "-lon": "31.5833333",
          "name": "Носівка"
        },
        {
          "-lat": "50.594181",
          "-lon": "32.38689",
          "name": "Прилуки"
        },
        {
          "-lat": "51.6463023",
          "-lon": "31.5616846",
          "name": "Седнів"
        },
        {
          "-lat": "52.173561",
          "-lon": "32.587059",
          "name": "Семенівка"
        },
        {
          "-lat": "51.503653",
          "-lon": "31.293167",
          "name": "Чернігів"
        },
        {
          "-lat": "51.819321",
          "-lon": "31.94846",
          "name": "Щорс"
        }
      ]
    },
    {
      "name": "Чернівецька область",
      "city": [
        {
          "-lat": "48.38",
          "-lon": "25.51",
          "name": "Вашківці"
        },
        {
          "-lat": "48.25",
          "-lon": "25.1916667",
          "name": "Вижниця"
        },
        {
          "-lat": "48.1485764",
          "-lon": "26.2572996",
          "name": "Герца"
        },
        {
          "-lat": "48.5166667",
          "-lon": "25.85",
          "name": "Заставна"
        },
        {
          "-lat": "48.4425",
          "-lon": "25.7613889",
          "name": "Кіцмань"
        },
        {
          "-lat": "48.5833333",
          "-lon": "27.4333333",
          "name": "Новодністровськ"
        },
        {
          "-lat": "48.2166667",
          "-lon": "26.2666667",
          "name": "Новоселиця"
        },
        {
          "-lat": "48.45",
          "-lon": "27.4166667",
          "name": "Сокиряни"
        },
        {
          "-lat": "48.1666667",
          "-lon": "25.7166667",
          "name": "Сторожинець"
        },
        {
          "-lat": "48.5",
          "-lon": "26.5",
          "name": "Хотин"
        },
        {
          "-lat": "48.3",
          "-lon": "25.9333333",
          "name": "Чернівці"
        }
      ]
    }
  ]
}
